{
  "status": "1",
  "regeocode": {
    "roads": [
      {
        "id": "028H48F0180162691",
        "location": "103.983,30.5668",
        "direction": "南",
        "name": "临港路一段",
        "distance": "216.296"
      },
      {
        "id": "028H48F0180167568",
        "location": "103.984,30.5669",
        "direction": "南",
        "name": "滨河南路",
        "distance": "228.124"
      },
      {
        "id": "028H48F018016610697",
        "location": "103.981,30.5645",
        "direction": "东",
        "name": "福通路",
        "distance": "248.02"
      }
    ],
    "roadinters": [
      {
        "second_name": "滨河南路",
        "first_id": "028H48F0180162691",
        "second_id": "028H48F0180167568",
        "location": "103.983504,30.566871",
        "distance": "228.124",
        "first_name": "临港路一段",
        "direction": "南"
      }
    ],
    "formatted_address": "四川省成都市双流区西航港街道康桥·品 上成都棠湖外国语学校",
    "addressComponent": {
      "city": "成都市",
      "province": "四川省",
      "adcode": "510116",
      "district": "双流区",
      "towncode": "510116002000",
      "streetNumber": {
        "number": "111号",
        "location": "103.983635,30.564110",
        "direction": "南",
        "distance": "79.4433",
        "street": "临港路一段"
      },
      "country": "中国",
      "township": "西航港街道",
      "businessAreas": [
        {"location": "104.006821,30.562482", "name": "白家", "id": "510116"}
      ],
      "building": {"name": [], "type": []},
      "neighborhood": {"name": "康桥·品上", "type": "商务住宅;住宅区;住宅小区"},
      "citycode": "028"
    },
    "aois": [
      {
        "area": "110540.222946",
        "type": "141200",
        "id": "B001C7TX14",
        "location": "103.983197,30.564367",
        "adcode": "510116",
        "name": "成都棠湖外国语学校",
        "distance": "0"
      }
    ],
    "pois": [
      {
        "id": "B001C7TX14",
        "direction": "西南",
        "businessarea": "白家",
        "address": "临港路一段9号",
        "poiweight": "0.568331",
        "name": "成都棠湖外国语学校",
        "location": "103.983197,30.564367",
        "distance": "67.8755",
        "tel": "028-81502222;028-85805900",
        "type": "科教文化服务;学校;学校"
      },
      {
        "id": "B001C09WPR",
        "direction": "西北",
        "businessarea": "白家",
        "address": "临港路一段9号",
        "poiweight": "0.432169",
        "name": "成都棠湖外国语学校棠外附属小学",
        "location": "103.982431,30.565851",
        "distance": "164.468",
        "tel": "028-81502111;028-85805900",
        "type": "科教文化服务;学校;小学"
      },
      {
        "id": "B001C7W4FE",
        "direction": "东",
        "businessarea": "白家",
        "address": "双流区",
        "poiweight": "0.240273",
        "name": "汪家河湾",
        "location": "103.984502,30.564860",
        "distance": "80.0514",
        "tel": [],
        "type": "地名地址信息;普通地名;村庄级地名"
      },
      {
        "id": "B0FFHSBBXD",
        "direction": "东北",
        "businessarea": "白家",
        "address": "临港路一段",
        "poiweight": "0.36682",
        "name": "久居福篮球公园",
        "location": "103.985571,30.565957",
        "distance": "221.621",
        "tel": [],
        "type": "风景名胜;公园广场;公园"
      },
      {
        "id": "B0IA7UDEL8",
        "direction": "西南",
        "businessarea": "白家",
        "address": "福通路88号2层1",
        "poiweight": "0.167753",
        "name": "挚爱空间托育园",
        "location": "103.981584,30.563469",
        "distance": "249.969",
        "tel": "028-89760778;18980045860",
        "type": "科教文化服务;培训机构;培训机构"
      },
      {
        "id": "B0GDJH508K",
        "direction": "西",
        "businessarea": "白家",
        "address": "西航港街道福通路119号",
        "poiweight": "0.176489",
        "name": "时代培飞思维馆",
        "location": "103.980820,30.564865",
        "distance": "272.631",
        "tel": "028-85812188",
        "type": "科教文化服务;培训机构;培训机构"
      },
      {
        "id": "B0FFINC0BY",
        "direction": "西",
        "businessarea": "白 家",
        "address": "福通路208号",
        "poiweight": "0.226993",
        "name": "棠外实验幼儿园",
        "location": "103.981047,30.565645",
        "distance": "266.962",
        "tel": "028-85882998",
        "type": " 科教文化服务;学校;幼儿园"
      },
      {
        "id": "B0FFGBEBXX",
        "direction": "西南",
        "businessarea": "白家",
        "address": "西航港街道福通路88号空港智慧菜市3楼附3-1",
        "poiweight": "0.14552",
        "name": "川越培训学校(西航港校区)",
        "location": "103.981511,30.563405",
        "distance": "259.816",
        "tel": "028-85637025",
        "type": "科教文化服务;培训机构;培训机构"
      },
      {
        "id": "B0FFHHUU6N",
        "direction": "西北",
        "businessarea": "白家",
        "address": "临港路一段四川双流棠湖中学外语实验学校",
        "poiweight": "0.146752",
        "name": "中国化学奥林匹克竞赛四川 省考点",
        "location": "103.982178,30.566364",
        "distance": "222.82",
        "tel": [],
        "type": "政府机构及社会团体;公检法机构;公证鉴定机构"
      },
      {
        "id": "B0FFJ8KII8",
        "direction": "西北",
        "businessarea": "白家",
        "address": "临港路一段与福通路交叉口东120米",
        "poiweight": "0.176682",
        "name": " 中共成都棠湖外国语学校委员会",
        "location": "103.982157,30.566371",
        "distance": "224.733",
        "tel": [],
        "type": "科教文化服务;科教文化场所;科教文化场所"
      },
      {
        "id": "B0FFH42UF3",
        "direction": "东南",
        "businessarea": "白家",
        "address": "棠中外 语学校航空港经济开发区临港路三 段9号",
        "poiweight": "0.200233",
        "name": "人和园",
        "location": "103.985496,30.563480",
        "distance": "230.233",
        "tel": [],
        "type": "商务住宅;住 宅区;住宅小区"
      },
      {
        "id": "B0FFISD88K",
        "direction": "西",
        "businessarea": "白家",
        "address": "临港路一段福通路135号",
        "poiweight": "0.148519",
        "name": "艺念空间音乐工作室",
        "location": "103.980770,30.565142",
        "distance": "279.626",
        "tel": "18919575720",
        "type": "科教文化服务;培训机构;培训机构"
      },
      {
        "id": "B0HRHL7QLP",
        "direction": "西南",
        "businessarea": "白家",
        "address": "福通路133号",
        "poiweight": "0.173431",
        "name": "超玥国际象棋(空港校区)",
        "location": "103.981087,30.563175",
        "distance": "307.646",
        "tel": "19960381763",
        "type": "科教文化服务;培训机构;培训机构"
      },
      {
        "id": "B0FFLFFBWC",
        "direction": "西",
        "businessarea": "白家",
        "address": "福通路79号(蓝润棠湖春天1号 门右侧商铺)",
        "poiweight": "0.163141",
        "name": "小小孩托育早教水育绘本馆棠湖春天旗舰园",
        "location": "103.980980,30.563759",
        "distance": "283.223",
        "tel": "028-85648756;18030585120",
        "type": "科教文化服务;培训机构;培训机构"
      },
      {
        "id": "B0FFL4ETUR",
        "direction": "南",
        "businessarea": "白家",
        "address": "大件路文星段88号",
        "poiweight": "0.158185",
        "name": "棠外教师公寓",
        "location": "103.984500,30.562632",
        "distance": "256.464",
        "tel": [],
        "type": "商务住宅;商务住宅相关;商务住宅相关"
      },
      {
        "id": "B0H0M9MMIW",
        "direction": "西南",
        "businessarea": "白家",
        "address": "航空港街道福通路88号附9号",
        "poiweight": "0.201602",
        "name": "蜜雪冰城(福通路店)",
        "location": "103.981486,30.563647",
        "distance": "246.439",
        "tel": "13795529887",
        "type": "餐饮服务;餐饮相关场所;餐饮相关"
      },
      {
        "id": "B0HKJHZ7TG",
        "direction": "西北",
        "businessarea": "白家",
        "address": "翰林上岛东南1门东70米",
        "poiweight": "0.176135",
        "name": "江湖豪卤托管",
        "location": "103.982539,30.566941",
        "distance": "259.028",
        "tel": [],
        "type": "科教文化服务;科教文化场所;科教文化场所"
      },
      {
        "id": "B0FFJ8KOQ2",
        "direction": "西",
        "businessarea": "白家",
        "address": "福通路棠湖春天福通路121号",
        "poiweight": "0.163374",
        "name": "名师堂",
        "location": "103.980803,30.564957",
        "distance": "274.614",
        "tel": "028-85824347;13668116847",
        "type": "科教文化服务;培训机构;培训机构"
      },
      {
        "id": "B0FFINI6FL",
        "direction": "西",
        "businessarea": "白家",
        "address": "福通路与临港路一段交叉口南240米",
        "poiweight": "0.165087",
        "name": "扶阳派体验馆",
        "location": "103.980963,30.564226",
        "distance": "267.294",
        "tel": [],
        "type": " 医疗保健服务;医疗保健服务场所;医疗保健服务场所"
      },
      {
        "id": "B0FFKZVU33",
        "direction": "西南",
        "businessarea": "白家",
        "address": "西航港街道棠湖春天2号门旁16栋二层",
        "poiweight": "0.176769",
        "name": "典雅艺术教育中心",
        "location": "103.981150,30.562986",
        "distance": "315.98",
        "tel": "13350096884",
        "type": "科教文化服务;培训机构; 培训机构"
      },
      {
        "id": "B0I61C8TAB",
        "direction": "西南",
        "businessarea": "白家",
        "address": "福通路88号",
        "poiweight": "0.169738",
        "name": "棠月茶府",
        "location": "103.981510,30.563449",
        "distance": "256.967",
        "tel": "028-81192252",
        "type": "餐饮服务;茶艺馆;茶艺馆"
      },
      {
        "id": "B0FFMDI0WZ",
        "direction": "西南",
        "businessarea": "白家",
        "address": "成都市双流区航空 港福通路63号",
        "poiweight": "0.163396",
        "name": "DALY文化美术培训学校",
        "location": "103.981026,30.563617",
        "distance": "286.27",
        "tel": [],
        "type": "科教文化服务;培训机构;培训机构"
      },
      {
        "id": "B0H0RUCRDD",
        "direction": "西南",
        "businessarea": "白家",
        "address": "福通路88-3号",
        "poiweight": "0.191701",
        "name": "廖记夫妻肺片",
        "location": "103.981548,30.563306",
        "distance": "263.908",
        "tel": "18084868733",
        "type": "餐饮服务;餐饮相关场所;餐饮相关"
      },
      {
        "id": "B0FFH79AGV",
        "direction": "西南",
        "businessarea": "白家",
        "address": "蓝润·棠湖春天2号门旁",
        "poiweight": "0.147928",
        "name": "艺彩堂艺术中心",
        "location": "103.981120,30.563016",
        "distance": "316.044",
        "tel": "15828239801",
        "type": "科教文化服务;培训机构;培训机构"
      },
      {
        "id": "B0FFKMSOFL",
        "direction": "西南",
        "businessarea": "白家",
        "address": "福通路58号",
        "poiweight": "0.224463",
        "name": "西航港星月幼 儿园",
        "location": "103.981965,30.562741",
        "distance": "283.191",
        "tel": "028-85753311",
        "type": "科教文化服务;学校;幼儿园"
      },
      {
        "id": "B001C8XHQI",
        "direction": "西",
        "businessarea": "白家",
        "address": "临港路一段棠湖中学外国语学校旁",
        "poiweight": "0.240522",
        "name": "蓝润·棠湖春天",
        "location": "103.980030,30.564490",
        "distance": "350.209",
        "tel": [],
        "type": "商务住宅;住宅区;住宅小区"
      },
      {
        "id": "B0FFI8L5EU",
        "direction": "西",
        "businessarea": "白家",
        "address": "临港路一段棠湖春天1号门内5栋2单元301",
        "poiweight": "0.148202",
        "name": "丛文教育",
        "location": "103.980553,30.565934",
        "distance": "322.691",
        "tel": "028-64700150",
        "type": "科教文化服务;培训机构;培训机构"
      },
      {
        "id": "B0HGMCXUOH",
        "direction": "西",
        "businessarea": "白家",
        "address": "福通路89号",
        "poiweight": "0.191227",
        "name": "前榐茶庄(蓝润·棠湖春天店)",
        "location": "103.980928,30.564073",
        "distance": "275.218",
        "tel": "028-85815733",
        "type": "餐饮服务;餐饮相关场所;餐饮相关"
      },
      {
        "id": "B001C95CYX",
        "direction": "东南",
        "businessarea": "白家",
        "address": "大件 路文星段与锦华路一段交叉口西260米",
        "poiweight": "0.240522",
        "name": "光网智慧小区",
        "location": "103.985159,30.562362",
        "distance": "308.798",
        "tel": [],
        "type": "商务住宅;住宅区;住宅小区"
      },
      {
        "id": "B0FFKX1UJX",
        "direction": "西",
        "businessarea": "白家",
        "address": "福通路151号棠外幼儿园侧门正对面",
        "poiweight": "0.163141",
        "name": "多三岁艺术培训学校",
        "location": "103.980614,30.565721",
        "distance": "308.883",
        "tel": [],
        "type": "科教文化服务;培训机构;培训机构"
      }
    ]
  },
  "info": "OK",
  "infocode": "10000"
}
